county,cases,deaths,lat,lon
Fulton,1364 ,48 ,33.8109499,-84.7310481
Dougherty,1062 ,67 ,31.5429887,-84.3597205
Dekalb,795 ,13 ,33.7927093,-84.3270543
Cobb,662 ,33 ,33.9123906,-84.6972676
Gwinnett,646 ,17 ,33.9600231,-84.3181545
Clayton,310 ,11 ,34.2428643,-84.5984981
Hall,250 ,0 ,34.3058696,-84.1192568
Henry,242 ,3 ,33.4724802,-84.2785358
Lee,222 ,15 ,31.7689938,-84.2706385
Sumter,211 ,9 ,32.0771487,-84.2578416
Bartow,207 ,15 ,34.2440988,-84.985769
Carroll,197 ,5 ,33.5865758,-85.1703404
Cherokee,170 ,7 ,33.5005916,-84.4914783
Douglas,142 ,5 ,33.689703,-84.8846812
Chatham,136 ,5 ,31.9710868,-81.351756
Mitchell,131 ,13 ,31.2498763,-84.2432471
Muscogee,127 ,3 ,32.4740307,-84.9775752
Forsyth,113 ,2 ,34.1927884,-84.2323435
Houston,111 ,7 ,32.4870656,-83.9498473
Early,105 ,5 ,31.3765383,-84.9587256
Terrell,100 ,10 ,31.7941452,-84.5708394
Floyd,99 ,5 ,34.2748096,-85.265634
Randolph,98 ,5 ,31.7751648,-84.8872959
Richmond,95 ,4 ,33.3859619,-82.2310033
Fayette,92 ,4 ,33.4036378,-84.6445108
Coweta,90 ,2 ,33.3513219,-84.8962861
Rockdale,85 ,2 ,33.6558755,-84.1887723
Clarke,81 ,10 ,33.9441951,-83.5292082
Colquitt,80 ,5 ,31.148152,-83.8272431
Worth,75 ,4 ,31.5836698,-84.1213062
Newton,73 ,3 ,33.5556431,-84.0049802
Thomas,73 ,3 ,30.8343417,-84.0114562
Paulding,69 ,2 ,33.9286041,-85.0268587
Crisp,61 ,0 ,31.9169717,-83.9254823
Spalding,60 ,4 ,33.2655664,-84.4391162
Columbia,59 ,0 ,33.5275606,-82.3756279
Bibb,56 ,1 ,32.8066395,-83.8313174
Lowndes,56 ,1 ,30.8276641,-83.5322856
Tift,56 ,1 ,31.4620157,-83.6427911
Troup,56 ,3 ,33.0366656,-85.098747
Coffee,53 ,2 ,31.5118862,-82.8942771
Barrow,48 ,3 ,34.0109181,-83.8433347
Ware,48 ,4 ,30.9258764,-82.652756
Upson,47 ,0 ,32.8670541,-84.3459853
Pierce,41 ,2 ,31.297628,-82.3323931
Calhoun,37 ,2 ,31.5374798,-84.6143248
Walton,36 ,2 ,33.7781427,-83.7941236
Dooly,35 ,1 ,32.1523132,-83.8192581
Oconee,35 ,1 ,33.8320577,-83.6015497
Baldwin,32 ,1 ,33.0581947,-83.3767553
Glynn,32 ,0 ,31.2215288,-81.7627215
Bryan,29 ,2 ,31.9384847,-81.3366541
Gordon,28 ,3 ,34.509082,-85.0184651
Laurens,28 ,1 ,32.4502041,-82.9615426
Turner,28 ,0 ,31.7097169,-83.7672869
Butts,27 ,0 ,33.2876561,-84.008061
Decatur,26 ,0 ,30.9053732,-84.6063261
Jackson,26 ,1 ,34.1222725,-83.6498217
Greene,25 ,1 ,33.564243,-83.213461
Dawson,24 ,1 ,34.4758874,-84.2918991
Whitfield,24 ,3 ,34.8017812,-85.1298821
Burke,21 ,0 ,33.0949232,-82.0493385
Polk,21 ,0 ,33.9998606,-85.3123828
Washington,21 ,0 ,32.9842382,-82.8420655
Peach,20 ,2 ,32.5658912,-83.9996748
Camden,19 ,0 ,30.9572853,-81.7273897
Effingham,19 ,1 ,32.3453413,-81.6139433
Mcduffie,19 ,2 ,33.4695855,-82.531416
Macon,18 ,0 ,32.3019958,-84.0433236
Meriwether,18 ,0 ,33.0359618,-84.7321711
Brooks,17 ,1 ,30.8201276,-83.6967418
Harris,17 ,1 ,32.7873585,-84.9045071
Bulloch,16 ,0 ,32.436937,-81.839803
Clay,15 ,1 ,31.5935371,-84.9543791
Grady,15 ,0 ,30.8768572,-84.2385266
Haralson,15 ,0 ,33.8053808,-85.1845181
Lamar,15 ,0 ,33.0504451,-84.1869511
Pike,15 ,0 ,32.0655552,-82.2023614
Stephens,15 ,0 ,34.574081,-83.4216966
Bacon,14 ,0 ,31.5480169,-82.43403
Johnson,14 ,1 ,32.692117,-82.6858691
Liberty,14 ,0 ,31.8747992,-81.64466
Morgan,14 ,0 ,33.5806701,-83.5120246
Habersham,13 ,0 ,34.6086982,-83.5456091
Monroe,12 ,1 ,33.0254067,-84.0551818
Murray,12 ,0 ,34.782174,-84.8306345
Schley,12 ,1 ,32.2381915,-84.3265297
Seminole,12 ,0 ,31.0403778,-84.8968852
Baker,11 ,2 ,31.3455552,-84.4812548
Catoosa,11 ,0 ,34.9113369,-85.1771685
Irwin,11 ,0 ,31.6042318,-83.2849291
Oglethorpe,11 ,1 ,33.8707055,-83.1174137
Pickens,11 ,2 ,34.4435055,-84.4995419
Toombs,11 ,1 ,32.1715359,-82.3339669
White,11 ,0 ,34.6411092,-83.7623648
Miller,10 ,0 ,31.1636817,-84.869848
Dodge,9 ,0 ,32.1889054,-83.2835786
Fannin,9 ,0 ,34.8670726,-84.3366946
Jones,9 ,0 ,32.9986012,-83.5811601
Lumpkin,9 ,0 ,34.527836,-84.017919
Madison,9 ,1 ,34.1279503,-83.2381266
Marion,9 ,0 ,32.3200167,-84.535096
Pulaski,9 ,0 ,32.2484974,-83.4608698
Talbot,9 ,1 ,32.6773334,-84.5580366
Telfair,9 ,0 ,31.9351788,-82.9480671
Ben Hill,8 ,0 ,31.7220409,-83.3197009
Jenkins,8 ,1 ,32.8086673,-81.9616381
Wilkinson,8 ,1 ,32.8107172,-83.1912456
Appling,7 ,0 ,31.7632088,-82.420582
Banks,7 ,0 ,34.3359133,-83.5336091
Emanuel,7 ,0 ,32.5730671,-82.404137
Berrien,6 ,0 ,31.2075802,-83.2828336
Brantley,6 ,1 ,31.2089482,-81.9996745
Cook,6 ,0 ,31.1675224,-83.4587171
Jasper,6 ,0 ,33.3069437,-83.7069025
Lincoln,6 ,0 ,33.8105078,-82.5722137
Rabun,6 ,0 ,34.8698023,-83.4554994
Stewart,6 ,0 ,32.0439972,-84.8137031
Taylor,6 ,2 ,32.5592902,-84.3821397
Union,6 ,1 ,34.8131442,-83.9486638
Walker,6 ,0 ,34.7120415,-85.3161595
Warren,6 ,0 ,33.4064726,-82.682467
Wilkes,6 ,0 ,33.7637416,-82.8687134
Lanier,5 ,0 ,31.0410238,-83.0922926
Putnam,5 ,0 ,33.3256731,-83.4237009
Screven,5 ,0 ,32.7510527,-81.656462
Wilcox,5 ,0 ,31.9484553,-83.4767476
Candler,4 ,0 ,32.3937981,-82.0966585
Chattooga,4 ,1 ,34.4742654,-85.3830821
Gilmer,4 ,0 ,34.6879469,-84.5081626
Jefferson,4 ,1 ,32.997925,-82.433388
Quitman,4 ,0 ,31.8730242,-85.0437054
Chattahoochee,3 ,0 ,32.3778761,-84.9477857
Clinch,3 ,0 ,31.0413982,-82.770748
Crawford,3 ,0 ,32.7197317,-84.0190168
Elbert,3 ,0 ,34.103443,-82.9103666
Franklin,3 ,0 ,34.3757117,-83.2478296
Hart,3 ,0 ,34.3556591,-82.996122
Heard,3 ,1 ,33.2791778,-85.1161361
Mcintosh,3 ,0 ,31.5333111,-81.4445574
Tattnall,3 ,0 ,32.0655552,-82.2023614
Towns,3 ,0 ,34.9181473,-83.7336489
Wayne,3 ,0 ,31.5594704,-81.9758095
Webster,3 ,0 ,32.1463907,-82.7966186
Atkinson,2 ,0 ,31.2975054,-82.8710331
Charlton,2 ,0 ,30.7152281,-82.4366806
Dade,2 ,1 ,34.8756058,-85.5463536
Echols,2 ,0 ,30.7421557,-82.9272262
Twiggs,2 ,0 ,32.6867147,-83.3595676
Wheeler,2 ,0 ,32.1463907,-82.7966186
Bleckley,1 ,0 ,32.4450373,-83.3216414
Hancock,1 ,0 ,33.2769957,-82.9894837
Jeff Davis,1 ,0 ,31.8121297,-82.6602823
Long,1 ,0 ,31.7764678,-82.0169041
Treutlen,1 ,0 ,32.3735458,-82.6063247
Unknown,1246 ,5 ,,
*Based on patient county of residence when known,,,,
