county,cases,deaths,lat,lon,pop
Gwinnett,7116 ,165 ,33.9600231,-84.3181545,842046
Fulton,6125 ,303 ,33.8082405,-84.4345438,1041423
Dekalb,5179 ,167 ,33.7927093,-84.3270543,707089
Cobb,4294 ,236 ,33.9123906,-84.6972676,707442
Hall,3037 ,58 ,34.3058696,-84.1192568,185416
Dougherty,1866 ,153 ,31.5429887,-84.3597205,94501
Clayton,1740 ,79 ,33.5212021,-84.4283069,26588
Muscogee,1400 ,40 ,32.4740307,-84.9775752,198413
Troup,1228 ,29 ,33.0366656,-85.098747,68468
Cherokee,1158 ,43 ,33.5005916,-84.4914783,221315
Henry,1070 ,31 ,33.4724802,-84.2785358,209053
Lowndes,1018 ,7 ,30.8276641,-83.5322856,114552
Chatham,936 ,35 ,31.9710868,-81.351756,276434
Whitfield,857 ,10 ,34.8017812,-85.1298821,103359
Douglas,799 ,35 ,33.689703,-84.8846812,133971
Colquitt,792 ,18 ,31.148152,-83.8272431,46137
Richmond,789 ,48 ,33.3859619,-82.2310033,202587
Forsyth,728 ,14 ,34.1927884,-84.2323435,187929
Carroll,651 ,39 ,33.5865758,-85.1703404,111580
Habersham,648 ,35 ,34.6086982,-83.5456091,43520
Bibb,647 ,38 ,32.8066395,-83.8313174,156462
Bartow,636 ,40 ,34.2440988,-84.985769,100661
Tift,614 ,25 ,31.4620157,-83.6427911,41064
Coweta,601 ,15 ,33.3513219,-84.8962861,130929
Houston,541 ,22 ,32.4870656,-83.9498473,146136
Sumter,541 ,50 ,32.0771487,-84.2578416,31554
Newton,534 ,11 ,33.5556431,-84.0049802,101505
Paulding,518 ,15 ,33.9286041,-85.0268587,144800
Coffee,479 ,16 ,31.5118862,-82.8942771,43170
Baldwin,464 ,32 ,33.0581947,-83.3767553,46367
Floyd,461 ,15 ,34.2748096,-85.265634,96177
Barrow,449 ,25 ,34.0109181,-83.8433347,70169
Mitchell,442 ,38 ,31.2498763,-84.2432471,23144
Clarke,428 ,15 ,33.9441951,-83.5292082,120266
Rockdale,407 ,10 ,33.6558755,-84.1887723,85820
Glynn,406 ,3 ,31.2215288,-81.7627215,81022
Thomas,397 ,33 ,30.8343417,-84.0114562,44724
Lee,386 ,22 ,31.7689938,-84.2706385,28746
Columbia,369 ,9 ,33.5275606,-82.3756279,131627
Ware,365 ,15 ,30.9258764,-82.652756,35821
Chattahoochee,363 ,0 ,32.3778761,-84.9477857,13037
Walton,363 ,27 ,33.7781427,-83.7941236,84575
Spalding,362 ,32 ,33.2655664,-84.4391162,63865
Upson,343 ,43 ,32.8670541,-84.3459853,26630
Jackson,333 ,8 ,34.1222725,-83.6498217,60571
Gordon,327 ,18 ,34.509082,-85.0184651,55766
Fayette,308 ,16 ,33.4036378,-84.6445108,107524
Walker,299 ,9 ,34.7120415,-85.3161595,68094
Worth,294 ,21 ,31.5836698,-84.1213062,21741
Catoosa,293 ,6 ,34.9113369,-85.1771685,65046
Harris,284 ,9 ,32.7873585,-84.9045071,32550
Crisp,265 ,12 ,31.9169717,-83.9254823,23606
Butts,258 ,33 ,33.2876561,-84.008061,23524
Early,257 ,31 ,31.3765383,-84.9587256,10594
Decatur,247 ,8 ,30.9053732,-84.6063261,27509
Appling,228 ,13 ,31.7632088,-82.420582,18368
Bulloch,222 ,3 ,32.436937,-81.839803,72694
Terrell,220 ,27 ,31.7941452,-84.5708394,9045
Bacon,210 ,4 ,31.5480169,-82.43403,11198
Hancock,209 ,32 ,33.2769957,-82.9894837,8996
Toombs,208 ,5 ,32.1715359,-82.3339669,27315
Randolph,198 ,25 ,31.7751648,-84.8872959,7327
Dooly,195 ,12 ,32.1523132,-83.8192581,14318
Polk,194 ,1 ,33.9998606,-85.3123828,41188
Stephens,190 ,6 ,34.574081,-83.4216966,25891
Gilmer,180 ,2 ,34.6879469,-84.5081626,28190
Murray,178 ,1 ,34.782174,-84.8306345,39392
Echols,177 ,0 ,30.7421557,-82.9272262,3988
Grady,172 ,4 ,30.8768572,-84.2385266,25440
Turner,172 ,16 ,31.7097169,-83.7672869,8410
Franklin,170 ,1 ,34.3757117,-83.2478296,21894
Meriwether,166 ,2 ,33.0359618,-84.7321711,21273
Calhoun,161 ,5 ,31.5374798,-84.6143248,6504
Pierce,148 ,4 ,31.297628,-82.3323931,18844
Laurens,142 ,1 ,32.4502041,-82.9615426,48041
Oconee,140 ,10 ,33.8320577,-83.6015497,33619
Monroe,139 ,16 ,33.0254067,-84.0551818,26637
Burke,137 ,6 ,33.0949232,-82.0493385,23125
White,134 ,4 ,34.6411092,-83.7623648,27556
Ben Hill,132 ,1 ,31.7220409,-83.3197009,17538
Putnam,128 ,11 ,33.3256731,-83.4237009,21198
Dawson,127 ,3 ,34.4758874,-84.2918991,22422
Lumpkin,125 ,3 ,34.527836,-84.017919,30611
Banks,124 ,0 ,34.3359133,-83.5336091,18316
Brooks,123 ,11 ,30.8201276,-83.6967418,15403
Wilcox,123 ,15 ,31.9484553,-83.4767476,9068
Lanier,119 ,3 ,31.0410238,-83.0922926,10400
Effingham,113 ,1 ,32.3453413,-81.6139433,53293
Macon,113 ,9 ,32.3019958,-84.0433236,14623
Liberty,112 ,1 ,31.8747992,-81.64466,65471
Cook,111 ,1 ,31.1675224,-83.4587171,16923
Atkinson,109 ,2 ,31.2975054,-82.8710331,8284
Bryan,108 ,5 ,31.9384847,-81.3366541,32214
Lamar,106 ,6 ,33.0504451,-84.1869511,18057
Camden,104 ,1 ,30.9572853,-81.7273897,51402
Berrien,101 ,0 ,31.2075802,-83.2828336,19041
Stewart,100 ,3 ,32.0439972,-84.8137031,6042
Tattnall,100 ,0 ,32.0655552,-82.2023614,25384
Clinch,98 ,3 ,31.0413982,-82.770748,6718
Peach,95 ,9 ,32.5658912,-83.9996748,27622
Elbert,94 ,0 ,34.103443,-82.9103666,19684
Fannin,92 ,1 ,34.8670726,-84.3366946,23492
Jenkins,92 ,10 ,32.8086673,-81.9616381,9213
Greene,91 ,9 ,33.564243,-83.213461,16092
Oglethorpe,87 ,7 ,33.8707055,-83.1174137,14618
Pike,86 ,3 ,32.0655552,-82.2023614,17810
Screven,86 ,5 ,32.7510527,-81.656462,14202
Madison,85 ,4 ,34.1279503,-83.2381266,27922
Emanuel,84 ,3 ,32.5730671,-82.404137,22898
Mcduffie,84 ,6 ,33.4695855,-82.531416,21663
Pickens,84 ,5 ,34.4435055,-84.4995419,29268
Johnson,83 ,2 ,32.692117,-82.6858691,9897
Washington,83 ,1 ,32.9842382,-82.8420655,20879
Brantley,80 ,2 ,31.2089482,-81.9996745,18587
Jefferson,78 ,1 ,32.997925,-82.433388,16432
Jeff Davis,77 ,2 ,31.8121297,-82.6602823,15156
Marion,77 ,2 ,32.3200167,-84.535096,8711
Wilkinson,74 ,8 ,32.8107172,-83.1912456,9577
Dodge,73 ,2 ,32.1889054,-83.2835786,21329
Haralson,67 ,4 ,33.8053808,-85.1845181,28400
Talbot,66 ,2 ,32.6773334,-84.5580366,6517
Jasper,65 ,1 ,33.3069437,-83.7069025,13630
Telfair,65 ,3 ,31.9351788,-82.9480671,16349
Union,62 ,3 ,34.8131442,-83.9486638,21451
Dade,60 ,1 ,34.8756058,-85.5463536,16490
Clay,56 ,2 ,31.5935371,-84.9543791,3116
Bleckley,55 ,1 ,32.4450373,-83.3216414,12913
Chattooga,53 ,2 ,34.4742654,-85.3830821,25725
Hart,52 ,0 ,34.3556591,-82.996122,25518
Jones,52 ,0 ,32.9986012,-83.5811601,28577
Wayne,52 ,0 ,31.5594704,-81.9758095,30305
Wilkes,51 ,1 ,33.7637416,-82.8687134,10076
Seminole,48 ,2 ,31.0403778,-84.8968852,8947
Heard,47 ,3 ,33.2791778,-85.1161361,11633
Irwin,47 ,1 ,31.6042318,-83.2849291,9600
Pulaski,47 ,2 ,32.2484974,-83.4608698,11720
Miller,45 ,0 ,31.1636817,-84.869848,5969
Morgan,45 ,0 ,33.5806701,-83.5120246,17881
Charlton,41 ,2 ,30.7152281,-82.4366806,13295
Wheeler,41 ,0 ,32.1463907,-82.7966186,7888
Rabun,40 ,3 ,34.8698023,-83.4554994,16297
Crawford,39 ,0 ,32.7197317,-84.0190168,12600
Baker,37 ,3 ,31.3455552,-84.4812548,3366
Towns,37 ,1 ,34.9181473,-83.7336489,10495
Long,33 ,1 ,31.7764678,-82.0169041,16048
Lincoln,30 ,1 ,33.8105078,-82.5722137,7737
Montgomery,28 ,0 ,6121,-82.6120317,8913
Mcintosh,27 ,1 ,31.5333111,-81.4445574,13839
Taylor,26 ,2 ,32.5592902,-84.3821397,8420
Candler,25 ,0 ,32.3937981,-82.0966585,11117
Twiggs,23 ,1 ,32.6867147,-83.3595676,8447
Schley,22 ,1 ,32.2381915,-84.3265297,4990
Treutlen,19 ,1 ,32.3735458,-82.6063247,6769
Warren,19 ,0 ,33.4064726,-82.682467,5578
Webster,18 ,1 ,32.1463907,-82.7966186,2793
Evans,17 ,0 ,32.1617191,-81.9174632,10689
Quitman,15 ,1 ,31.8730242,-85.0437054,2404
Glascock,3 ,0 ,33.2339586,-82.6065612,3142
Taliaferro,2 ,0 ,33.5545303,-82.9140466,1680
Merriwether,1 ,0 ,,,
Unknown,1046 ,2 ,,,
Non-Georgia Resident,3081 ,41 ,,,
*Based on patient county of residence when known,,,,,
